0	timestamp=Tue Sep 20 10:57:51 EDT 2016, trueLongitude=-117.000000, trueLatitude=30.000000, trueDepth=10.000, vE= 0.000, vN= 0.280, vU=-0.155, pitch=-29.00, roll= 0.00, heading=   0.00	DEST=princess.state&SRC=MetronSimulator_RC1
1000	timestamp=Tue Sep 20 10:57:52 EDT 2016, trueLongitude=-117.000000, trueLatitude=30.000002, trueDepth=10.120, vE= 0.020, vN= 0.583, vU=-0.112, pitch=-10.90, roll= 0.00, heading=   2.01	DEST=princess.state&SRC=MetronSimulator_RC1
2000	timestamp=Tue Sep 20 10:57:53 EDT 2016, trueLongitude=-117.000000, trueLatitude=30.000005, trueDepth=10.248, vE= 0.074, vN= 0.827, vU=-0.147, pitch=-10.04, roll= 0.00, heading=   5.10	DEST=princess.state&SRC=MetronSimulator_RC1
3000	timestamp=Tue Sep 20 10:57:54 EDT 2016, trueLongitude=-116.999999, trueLatitude=30.000009, trueDepth=10.414, vE= 0.151, vN= 1.040, vU=-0.185, pitch=-10.00, roll= 0.00, heading=   8.27	DEST=princess.state&SRC=MetronSimulator_RC1
4000	timestamp=Tue Sep 20 10:57:55 EDT 2016, trueLongitude=-116.999998, trueLatitude=30.000014, trueDepth=10.617, vE= 0.244, vN= 1.227, vU=-0.221, pitch=-10.00, roll= 0.00, heading=  11.26	DEST=princess.state&SRC=MetronSimulator_RC1
5000	timestamp=Tue Sep 20 10:57:56 EDT 2016, trueLongitude=-116.999997, trueLatitude=30.000020, trueDepth=10.854, vE= 0.348, vN= 1.389, vU=-0.253, pitch=-10.00, roll= 0.00, heading=  14.07	DEST=princess.state&SRC=MetronSimulator_RC1
6000	timestamp=Tue Sep 20 10:57:57 EDT 2016, trueLongitude=-116.999995, trueLatitude=30.000027, trueDepth=11.121, vE= 0.459, vN= 1.528, vU=-0.281, pitch=-10.00, roll= 0.00, heading=  16.71	DEST=princess.state&SRC=MetronSimulator_RC1
7000	timestamp=Tue Sep 20 10:57:58 EDT 2016, trueLongitude=-116.999992, trueLatitude=30.000034, trueDepth=11.416, vE= 0.573, vN= 1.647, vU=-0.307, pitch=-10.00, roll= 0.00, heading=  19.20	DEST=princess.state&SRC=MetronSimulator_RC1
8000	timestamp=Tue Sep 20 10:57:59 EDT 2016, trueLongitude=-116.999989, trueLatitude=30.000042, trueDepth=11.735, vE= 0.689, vN= 1.747, vU=-0.331, pitch=-10.00, roll= 0.00, heading=  21.53	DEST=princess.state&SRC=MetronSimulator_RC1
9000	timestamp=Tue Sep 20 10:58:00 EDT 2016, trueLongitude=-116.999985, trueLatitude=30.000050, trueDepth=12.077, vE= 0.804, vN= 1.830, vU=-0.352, pitch=-10.00, roll= 0.00, heading=  23.73	DEST=princess.state&SRC=MetronSimulator_RC1
10000	timestamp=Tue Sep 20 10:58:01 EDT 2016, trueLongitude=-116.999980, trueLatitude=30.000058, trueDepth=12.439, vE= 0.918, vN= 1.899, vU=-0.372, pitch=-10.00, roll= 0.00, heading=  25.79	DEST=princess.state&SRC=MetronSimulator_RC1
11000	timestamp=Tue Sep 20 10:58:02 EDT 2016, trueLongitude=-116.999975, trueLatitude=30.000067, trueDepth=12.820, vE= 1.027, vN= 1.954, vU=-0.389, pitch=-10.00, roll= 0.00, heading=  27.73	DEST=princess.state&SRC=MetronSimulator_RC1
12000	timestamp=Tue Sep 20 10:58:03 EDT 2016, trueLongitude=-116.999970, trueLatitude=30.000076, trueDepth=13.217, vE= 1.134, vN= 1.999, vU=-0.405, pitch=-10.00, roll= 0.00, heading=  29.56	DEST=princess.state&SRC=MetronSimulator_RC1
13000	timestamp=Tue Sep 20 10:58:04 EDT 2016, trueLongitude=-116.999963, trueLatitude=30.000085, trueDepth=13.629, vE= 1.235, vN= 2.033, vU=-0.420, pitch=-10.00, roll= 0.00, heading=  31.27	DEST=princess.state&SRC=MetronSimulator_RC1
14000	timestamp=Tue Sep 20 10:58:05 EDT 2016, trueLongitude=-116.999957, trueLatitude=30.000094, trueDepth=14.056, vE= 1.332, vN= 2.060, vU=-0.432, pitch=-10.00, roll= 0.00, heading=  32.89	DEST=princess.state&SRC=MetronSimulator_RC1
15000	timestamp=Tue Sep 20 10:58:06 EDT 2016, trueLongitude=-116.999950, trueLatitude=30.000103, trueDepth=14.494, vE= 1.423, vN= 2.078, vU=-0.444, pitch=-10.00, roll= 0.00, heading=  34.41	DEST=princess.state&SRC=MetronSimulator_RC1
16000	timestamp=Tue Sep 20 10:58:07 EDT 2016, trueLongitude=-116.999942, trueLatitude=30.000113, trueDepth=14.943, vE= 1.510, vN= 2.091, vU=-0.455, pitch=-10.00, roll= 0.00, heading=  35.83	DEST=princess.state&SRC=MetronSimulator_RC1
17000	timestamp=Tue Sep 20 10:58:08 EDT 2016, trueLongitude=-116.999934, trueLatitude=30.000122, trueDepth=15.403, vE= 1.591, vN= 2.099, vU=-0.464, pitch=-10.00, roll= 0.00, heading=  37.17	DEST=princess.state&SRC=MetronSimulator_RC1
18000	timestamp=Tue Sep 20 10:58:09 EDT 2016, trueLongitude=-116.999925, trueLatitude=30.000131, trueDepth=15.872, vE= 1.668, vN= 2.102, vU=-0.473, pitch=-10.00, roll= 0.00, heading=  38.44	DEST=princess.state&SRC=MetronSimulator_RC1
19000	timestamp=Tue Sep 20 10:58:10 EDT 2016, trueLongitude=-116.999917, trueLatitude=30.000141, trueDepth=16.349, vE= 1.740, vN= 2.101, vU=-0.481, pitch=-10.00, roll= 0.00, heading=  39.62	DEST=princess.state&SRC=MetronSimulator_RC1
20000	timestamp=Tue Sep 20 10:58:11 EDT 2016, trueLongitude=-116.999907, trueLatitude=30.000150, trueDepth=16.834, vE= 1.806, vN= 2.097, vU=-0.488, pitch=-10.00, roll= 0.00, heading=  40.74	DEST=princess.state&SRC=MetronSimulator_RC1
21000	timestamp=Tue Sep 20 10:58:12 EDT 2016, trueLongitude=-116.999898, trueLatitude=30.000160, trueDepth=17.325, vE= 1.869, vN= 2.091, vU=-0.495, pitch=-10.00, roll= 0.00, heading=  41.79	DEST=princess.state&SRC=MetronSimulator_RC1
22000	timestamp=Tue Sep 20 10:58:13 EDT 2016, trueLongitude=-116.999888, trueLatitude=30.000169, trueDepth=17.822, vE= 1.927, vN= 2.083, vU=-0.500, pitch=-10.00, roll= 0.00, heading=  42.77	DEST=princess.state&SRC=MetronSimulator_RC1
23000	timestamp=Tue Sep 20 10:58:14 EDT 2016, trueLongitude=-116.999878, trueLatitude=30.000179, trueDepth=18.325, vE= 1.981, vN= 2.073, vU=-0.506, pitch=-10.00, roll= 0.00, heading=  43.70	DEST=princess.state&SRC=MetronSimulator_RC1
24000	timestamp=Tue Sep 20 10:58:15 EDT 2016, trueLongitude=-116.999867, trueLatitude=30.000188, trueDepth=18.833, vE= 2.031, vN= 2.062, vU=-0.510, pitch=-10.00, roll= 0.00, heading=  44.57	DEST=princess.state&SRC=MetronSimulator_RC1
25000	timestamp=Tue Sep 20 10:58:16 EDT 2016, trueLongitude=-116.999857, trueLatitude=30.000197, trueDepth=19.346, vE= 2.078, vN= 2.050, vU=-0.515, pitch=-10.00, roll= 0.00, heading=  45.39	DEST=princess.state&SRC=MetronSimulator_RC1
26000	timestamp=Tue Sep 20 10:58:17 EDT 2016, trueLongitude=-116.999846, trueLatitude=30.000206, trueDepth=19.782, vE= 2.144, vN= 2.058, vU=-0.295, pitch=-5.67, roll= 0.00, heading=  46.16	DEST=princess.state&SRC=MetronSimulator_RC1
27000	timestamp=Tue Sep 20 10:58:18 EDT 2016, trueLongitude=-116.999835, trueLatitude=30.000216, trueDepth=19.955, vE= 2.194, vN= 2.054, vU=-0.081, pitch=-1.55, roll= 0.00, heading=  46.89	DEST=princess.state&SRC=MetronSimulator_RC1
28000	timestamp=Tue Sep 20 10:58:19 EDT 2016, trueLongitude=-116.999823, trueLatitude=30.000225, trueDepth=19.995, vE= 2.233, vN= 2.041, vU=-0.014, pitch=-0.26, roll= 0.00, heading=  47.57	DEST=princess.state&SRC=MetronSimulator_RC1
29000	timestamp=Tue Sep 20 10:58:20 EDT 2016, trueLongitude=-116.999811, trueLatitude=30.000234, trueDepth=20.001, vE= 2.268, vN= 2.027, vU=-0.001, pitch=-0.01, roll= 0.00, heading=  48.21	DEST=princess.state&SRC=MetronSimulator_RC1
30000	timestamp=Tue Sep 20 10:58:21 EDT 2016, trueLongitude=-116.999800, trueLatitude=30.000243, trueDepth=20.001, vE= 2.301, vN= 2.013, vU= 0.001, pitch= 0.01, roll= 0.00, heading=  48.82	DEST=princess.state&SRC=MetronSimulator_RC1
31000	timestamp=Tue Sep 20 10:58:22 EDT 2016, trueLongitude=-116.999788, trueLatitude=30.000252, trueDepth=20.000, vE= 2.331, vN= 1.999, vU= 0.000, pitch= 0.00, roll= 0.00, heading=  49.38	DEST=princess.state&SRC=MetronSimulator_RC1
32000	timestamp=Tue Sep 20 10:58:23 EDT 2016, trueLongitude=-116.999775, trueLatitude=30.000261, trueDepth=20.000, vE= 2.359, vN= 1.985, vU= 0.000, pitch= 0.00, roll= 0.00, heading=  49.91	DEST=princess.state&SRC=MetronSimulator_RC1
33000	timestamp=Tue Sep 20 10:58:24 EDT 2016, trueLongitude=-116.999763, trueLatitude=30.000270, trueDepth=20.000, vE= 2.384, vN= 1.971, vU= 0.000, pitch= 0.00, roll= 0.00, heading=  50.42	DEST=princess.state&SRC=MetronSimulator_RC1
34000	timestamp=Tue Sep 20 10:58:25 EDT 2016, trueLongitude=-116.999751, trueLatitude=30.000279, trueDepth=20.000, vE= 2.408, vN= 1.958, vU=-0.000, pitch=-0.00, roll= 0.00, heading=  50.89	DEST=princess.state&SRC=MetronSimulator_RC1
35000	timestamp=Tue Sep 20 10:58:26 EDT 2016, trueLongitude=-116.999738, trueLatitude=30.000287, trueDepth=20.000, vE= 2.431, vN= 1.945, vU=-0.000, pitch=-0.00, roll= 0.00, heading=  51.33	DEST=princess.state&SRC=MetronSimulator_RC1
36000	timestamp=Tue Sep 20 10:58:27 EDT 2016, trueLongitude=-116.999725, trueLatitude=30.000296, trueDepth=20.000, vE= 2.451, vN= 1.933, vU=-0.000, pitch=-0.00, roll= 0.00, heading=  51.75	DEST=princess.state&SRC=MetronSimulator_RC1
37000	timestamp=Tue Sep 20 10:58:28 EDT 2016, trueLongitude=-116.999713, trueLatitude=30.000305, trueDepth=20.000, vE= 2.470, vN= 1.920, vU=-0.000, pitch=-0.00, roll= 0.00, heading=  52.14	DEST=princess.state&SRC=MetronSimulator_RC1
38000	timestamp=Tue Sep 20 10:58:29 EDT 2016, trueLongitude=-116.999700, trueLatitude=30.000313, trueDepth=20.000, vE= 2.488, vN= 1.909, vU=-0.000, pitch=-0.00, roll= 0.00, heading=  52.51	DEST=princess.state&SRC=MetronSimulator_RC1
39000	timestamp=Tue Sep 20 10:58:30 EDT 2016, trueLongitude=-116.999687, trueLatitude=30.000322, trueDepth=20.000, vE= 2.504, vN= 1.897, vU= 0.000, pitch= 0.00, roll= 0.00, heading=  52.85	DEST=princess.state&SRC=MetronSimulator_RC1
40000	timestamp=Tue Sep 20 10:58:31 EDT 2016, trueLongitude=-116.999674, trueLatitude=30.000331, trueDepth=20.000, vE= 2.520, vN= 1.886, vU= 0.000, pitch= 0.00, roll= 0.00, heading=  53.18	DEST=princess.state&SRC=MetronSimulator_RC1
41000	timestamp=Tue Sep 20 10:58:32 EDT 2016, trueLongitude=-116.999661, trueLatitude=30.000339, trueDepth=20.000, vE= 2.534, vN= 1.876, vU= 0.000, pitch= 0.00, roll= 0.00, heading=  53.49	DEST=princess.state&SRC=MetronSimulator_RC1
42000	timestamp=Tue Sep 20 10:58:33 EDT 2016, trueLongitude=-116.999647, trueLatitude=30.000347, trueDepth=20.000, vE= 2.547, vN= 1.866, vU= 0.000, pitch= 0.00, roll= 0.00, heading=  53.77	DEST=princess.state&SRC=MetronSimulator_RC1
43000	timestamp=Tue Sep 20 10:58:34 EDT 2016, trueLongitude=-116.999634, trueLatitude=30.000356, trueDepth=20.000, vE= 2.559, vN= 1.856, vU= 0.000, pitch= 0.00, roll= 0.00, heading=  54.04	DEST=princess.state&SRC=MetronSimulator_RC1
44000	timestamp=Tue Sep 20 10:58:35 EDT 2016, trueLongitude=-116.999621, trueLatitude=30.000364, trueDepth=20.000, vE= 2.570, vN= 1.847, vU=-0.000, pitch=-0.00, roll= 0.00, heading=  54.30	DEST=princess.state&SRC=MetronSimulator_RC1
45000	timestamp=Tue Sep 20 10:58:36 EDT 2016, trueLongitude=-116.999607, trueLatitude=30.000372, trueDepth=20.000, vE= 2.580, vN= 1.838, vU=-0.000, pitch=-0.00, roll= 0.00, heading=  54.54	DEST=princess.state&SRC=MetronSimulator_RC1
46000	timestamp=Tue Sep 20 10:58:37 EDT 2016, trueLongitude=-116.999594, trueLatitude=30.000381, trueDepth=20.000, vE= 2.590, vN= 1.830, vU=-0.000, pitch=-0.00, roll= 0.00, heading=  54.76	DEST=princess.state&SRC=MetronSimulator_RC1
47000	timestamp=Tue Sep 20 10:58:38 EDT 2016, trueLongitude=-116.999581, trueLatitude=30.000389, trueDepth=20.000, vE= 2.599, vN= 1.822, vU=-0.000, pitch=-0.00, roll= 0.00, heading=  54.98	DEST=princess.state&SRC=MetronSimulator_RC1
48000	timestamp=Tue Sep 20 10:58:39 EDT 2016, trueLongitude=-116.999567, trueLatitude=30.000397, trueDepth=20.000, vE= 2.607, vN= 1.814, vU=-0.000, pitch=-0.00, roll= 0.00, heading=  55.17	DEST=princess.state&SRC=MetronSimulator_RC1
49000	timestamp=Tue Sep 20 10:58:40 EDT 2016, trueLongitude=-116.999553, trueLatitude=30.000405, trueDepth=20.000, vE= 2.615, vN= 1.807, vU=-0.000, pitch=-0.00, roll= 0.00, heading=  55.36	DEST=princess.state&SRC=MetronSimulator_RC1
50000	timestamp=Tue Sep 20 10:58:41 EDT 2016, trueLongitude=-116.999540, trueLatitude=30.000413, trueDepth=20.000, vE= 2.622, vN= 1.800, vU=-0.000, pitch=-0.00, roll= 0.00, heading=  55.54	DEST=princess.state&SRC=MetronSimulator_RC1
51000	timestamp=Tue Sep 20 10:58:42 EDT 2016, trueLongitude=-116.999526, trueLatitude=30.000421, trueDepth=20.000, vE= 2.629, vN= 1.793, vU=-0.000, pitch=-0.00, roll= 0.00, heading=  55.70	DEST=princess.state&SRC=MetronSimulator_RC1
52000	timestamp=Tue Sep 20 10:58:43 EDT 2016, trueLongitude=-116.999513, trueLatitude=30.000429, trueDepth=20.000, vE= 2.635, vN= 1.787, vU=-0.000, pitch=-0.00, roll= 0.00, heading=  55.86	DEST=princess.state&SRC=MetronSimulator_RC1
53000	timestamp=Tue Sep 20 10:58:44 EDT 2016, trueLongitude=-116.999499, trueLatitude=30.000437, trueDepth=20.000, vE= 2.641, vN= 1.781, vU=-0.000, pitch=-0.00, roll= 0.00, heading=  56.01	DEST=princess.state&SRC=MetronSimulator_RC1
54000	timestamp=Tue Sep 20 10:58:45 EDT 2016, trueLongitude=-116.999485, trueLatitude=30.000445, trueDepth=20.000, vE= 2.647, vN= 1.776, vU=-0.000, pitch=-0.00, roll= 0.00, heading=  56.14	DEST=princess.state&SRC=MetronSimulator_RC1
55000	timestamp=Tue Sep 20 10:58:46 EDT 2016, trueLongitude=-116.999471, trueLatitude=30.000453, trueDepth=20.000, vE= 2.652, vN= 1.770, vU=-0.000, pitch=-0.00, roll= 0.00, heading=  56.27	DEST=princess.state&SRC=MetronSimulator_RC1
56000	timestamp=Tue Sep 20 10:58:47 EDT 2016, trueLongitude=-116.999458, trueLatitude=30.000461, trueDepth=20.000, vE= 2.656, vN= 1.765, vU=-0.000, pitch=-0.00, roll= 0.00, heading=  56.39	DEST=princess.state&SRC=MetronSimulator_RC1
57000	timestamp=Tue Sep 20 10:58:48 EDT 2016, trueLongitude=-116.999444, trueLatitude=30.000469, trueDepth=20.000, vE= 2.661, vN= 1.761, vU=-0.000, pitch=-0.00, roll= 0.00, heading=  56.51	DEST=princess.state&SRC=MetronSimulator_RC1
58000	timestamp=Tue Sep 20 10:58:49 EDT 2016, trueLongitude=-116.999430, trueLatitude=30.000477, trueDepth=20.000, vE= 2.665, vN= 1.756, vU=-0.000, pitch=-0.00, roll= 0.00, heading=  56.62	DEST=princess.state&SRC=MetronSimulator_RC1
59000	timestamp=Tue Sep 20 10:58:50 EDT 2016, trueLongitude=-116.999416, trueLatitude=30.000485, trueDepth=20.000, vE= 2.669, vN= 1.752, vU=-0.000, pitch=-0.00, roll= 0.00, heading=  56.72	DEST=princess.state&SRC=MetronSimulator_RC1
60000	timestamp=Tue Sep 20 10:58:51 EDT 2016, trueLongitude=-116.999402, trueLatitude=30.000493, trueDepth=20.000, vE= 2.672, vN= 1.748, vU=-0.000, pitch=-0.00, roll= 0.00, heading=  56.81	DEST=princess.state&SRC=MetronSimulator_RC1
61000	timestamp=Tue Sep 20 10:58:52 EDT 2016, trueLongitude=-116.999388, trueLatitude=30.000501, trueDepth=20.000, vE= 2.675, vN= 1.744, vU=-0.000, pitch=-0.00, roll= 0.00, heading=  56.90	DEST=princess.state&SRC=MetronSimulator_RC1
62000	timestamp=Tue Sep 20 10:58:53 EDT 2016, trueLongitude=-116.999374, trueLatitude=30.000509, trueDepth=20.000, vE= 2.678, vN= 1.740, vU=-0.000, pitch=-0.00, roll= 0.00, heading=  56.99	DEST=princess.state&SRC=MetronSimulator_RC1
63000	timestamp=Tue Sep 20 10:58:54 EDT 2016, trueLongitude=-116.999361, trueLatitude=30.000516, trueDepth=20.000, vE= 2.681, vN= 1.737, vU=-0.000, pitch=-0.00, roll= 0.00, heading=  57.06	DEST=princess.state&SRC=MetronSimulator_RC1
64000	timestamp=Tue Sep 20 10:58:55 EDT 2016, trueLongitude=-116.999347, trueLatitude=30.000524, trueDepth=20.000, vE= 2.684, vN= 1.734, vU=-0.000, pitch=-0.00, roll= 0.00, heading=  57.14	DEST=princess.state&SRC=MetronSimulator_RC1
65000	timestamp=Tue Sep 20 10:58:56 EDT 2016, trueLongitude=-116.999333, trueLatitude=30.000532, trueDepth=20.000, vE= 2.686, vN= 1.731, vU=-0.000, pitch=-0.00, roll= 0.00, heading=  57.21	DEST=princess.state&SRC=MetronSimulator_RC1
66000	timestamp=Tue Sep 20 10:58:57 EDT 2016, trueLongitude=-116.999319, trueLatitude=30.000540, trueDepth=20.000, vE= 2.689, vN= 1.728, vU=-0.000, pitch=-0.00, roll= 0.00, heading=  57.27	DEST=princess.state&SRC=MetronSimulator_RC1
67000	timestamp=Tue Sep 20 10:58:58 EDT 2016, trueLongitude=-116.999305, trueLatitude=30.000548, trueDepth=20.000, vE= 2.691, vN= 1.725, vU=-0.000, pitch=-0.00, roll= 0.00, heading=  57.34	DEST=princess.state&SRC=MetronSimulator_RC1
68000	timestamp=Tue Sep 20 10:58:59 EDT 2016, trueLongitude=-116.999291, trueLatitude=30.000555, trueDepth=20.000, vE= 2.693, vN= 1.723, vU=-0.000, pitch=-0.00, roll= 0.00, heading=  57.39	DEST=princess.state&SRC=MetronSimulator_RC1
69000	timestamp=Tue Sep 20 10:59:00 EDT 2016, trueLongitude=-116.999277, trueLatitude=30.000563, trueDepth=20.000, vE= 2.695, vN= 1.720, vU=-0.000, pitch=-0.00, roll= 0.00, heading=  57.45	DEST=princess.state&SRC=MetronSimulator_RC1
70000	timestamp=Tue Sep 20 10:59:01 EDT 2016, trueLongitude=-116.999263, trueLatitude=30.000571, trueDepth=20.000, vE= 2.697, vN= 1.718, vU=-0.000, pitch=-0.00, roll= 0.00, heading=  57.50	DEST=princess.state&SRC=MetronSimulator_RC1
71000	timestamp=Tue Sep 20 10:59:02 EDT 2016, trueLongitude=-116.999249, trueLatitude=30.000578, trueDepth=20.000, vE= 2.698, vN= 1.716, vU=-0.000, pitch=-0.00, roll= 0.00, heading=  57.55	DEST=princess.state&SRC=MetronSimulator_RC1
72000	timestamp=Tue Sep 20 10:59:03 EDT 2016, trueLongitude=-116.999235, trueLatitude=30.000586, trueDepth=20.000, vE= 2.700, vN= 1.714, vU=-0.000, pitch=-0.00, roll= 0.00, heading=  57.59	DEST=princess.state&SRC=MetronSimulator_RC1
73000	timestamp=Tue Sep 20 10:59:04 EDT 2016, trueLongitude=-116.999221, trueLatitude=30.000594, trueDepth=20.000, vE= 2.701, vN= 1.712, vU=-0.000, pitch=-0.00, roll= 0.00, heading=  57.64	DEST=princess.state&SRC=MetronSimulator_RC1
74000	timestamp=Tue Sep 20 10:59:05 EDT 2016, trueLongitude=-116.999207, trueLatitude=30.000602, trueDepth=20.000, vE= 2.703, vN= 1.710, vU=-0.000, pitch=-0.00, roll= 0.00, heading=  57.68	DEST=princess.state&SRC=MetronSimulator_RC1
75000	timestamp=Tue Sep 20 10:59:06 EDT 2016, trueLongitude=-116.999193, trueLatitude=30.000609, trueDepth=20.000, vE= 2.704, vN= 1.708, vU=-0.000, pitch=-0.00, roll= 0.00, heading=  57.71	DEST=princess.state&SRC=MetronSimulator_RC1
76000	timestamp=Tue Sep 20 10:59:07 EDT 2016, trueLongitude=-116.999179, trueLatitude=30.000617, trueDepth=20.000, vE= 2.705, vN= 1.707, vU=-0.000, pitch=-0.00, roll= 0.00, heading=  57.75	DEST=princess.state&SRC=MetronSimulator_RC1
77000	timestamp=Tue Sep 20 10:59:08 EDT 2016, trueLongitude=-116.999165, trueLatitude=30.000625, trueDepth=20.000, vE= 2.706, vN= 1.705, vU=-0.000, pitch=-0.00, roll= 0.00, heading=  57.78	DEST=princess.state&SRC=MetronSimulator_RC1
78000	timestamp=Tue Sep 20 10:59:09 EDT 2016, trueLongitude=-116.999151, trueLatitude=30.000632, trueDepth=20.000, vE= 2.707, vN= 1.704, vU=-0.000, pitch=-0.00, roll= 0.00, heading=  57.82	DEST=princess.state&SRC=MetronSimulator_RC1
79000	timestamp=Tue Sep 20 10:59:10 EDT 2016, trueLongitude=-116.999137, trueLatitude=30.000640, trueDepth=20.000, vE= 2.708, vN= 1.703, vU=-0.000, pitch=-0.00, roll= 0.00, heading=  57.84	DEST=princess.state&SRC=MetronSimulator_RC1
80000	timestamp=Tue Sep 20 10:59:11 EDT 2016, trueLongitude=-116.999122, trueLatitude=30.000648, trueDepth=20.000, vE= 2.709, vN= 1.701, vU=-0.000, pitch=-0.00, roll= 0.00, heading=  57.87	DEST=princess.state&SRC=MetronSimulator_RC1
81000	timestamp=Tue Sep 20 10:59:12 EDT 2016, trueLongitude=-116.999108, trueLatitude=30.000655, trueDepth=20.000, vE= 2.710, vN= 1.700, vU=-0.000, pitch=-0.00, roll= 0.00, heading=  57.90	DEST=princess.state&SRC=MetronSimulator_RC1
82000	timestamp=Tue Sep 20 10:59:13 EDT 2016, trueLongitude=-116.999094, trueLatitude=30.000663, trueDepth=20.000, vE= 2.711, vN= 1.699, vU=-0.000, pitch=-0.00, roll= 0.00, heading=  57.92	DEST=princess.state&SRC=MetronSimulator_RC1
83000	timestamp=Tue Sep 20 10:59:14 EDT 2016, trueLongitude=-116.999080, trueLatitude=30.000671, trueDepth=20.000, vE= 2.712, vN= 1.698, vU=-0.000, pitch=-0.00, roll= 0.00, heading=  57.95	DEST=princess.state&SRC=MetronSimulator_RC1
84000	timestamp=Tue Sep 20 10:59:15 EDT 2016, trueLongitude=-116.999066, trueLatitude=30.000678, trueDepth=20.000, vE= 2.712, vN= 1.697, vU=-0.000, pitch=-0.00, roll= 0.00, heading=  57.97	DEST=princess.state&SRC=MetronSimulator_RC1
85000	timestamp=Tue Sep 20 10:59:16 EDT 2016, trueLongitude=-116.999052, trueLatitude=30.000686, trueDepth=20.000, vE= 2.713, vN= 1.696, vU=-0.000, pitch=-0.00, roll= 0.00, heading=  57.99	DEST=princess.state&SRC=MetronSimulator_RC1
86000	timestamp=Tue Sep 20 10:59:17 EDT 2016, trueLongitude=-116.999038, trueLatitude=30.000693, trueDepth=20.000, vE= 2.714, vN= 1.695, vU=-0.000, pitch=-0.00, roll= 0.00, heading=  58.01	DEST=princess.state&SRC=MetronSimulator_RC1
87000	timestamp=Tue Sep 20 10:59:18 EDT 2016, trueLongitude=-116.999024, trueLatitude=30.000701, trueDepth=20.000, vE= 2.714, vN= 1.694, vU=-0.000, pitch=-0.00, roll= 0.00, heading=  58.03	DEST=princess.state&SRC=MetronSimulator_RC1
88000	timestamp=Tue Sep 20 10:59:19 EDT 2016, trueLongitude=-116.999010, trueLatitude=30.000709, trueDepth=20.000, vE= 2.715, vN= 1.693, vU=-0.000, pitch=-0.00, roll= 0.00, heading=  58.04	DEST=princess.state&SRC=MetronSimulator_RC1
89000	timestamp=Tue Sep 20 10:59:20 EDT 2016, trueLongitude=-116.998996, trueLatitude=30.000716, trueDepth=20.000, vE= 2.715, vN= 1.693, vU=-0.000, pitch=-0.00, roll= 0.00, heading=  58.06	DEST=princess.state&SRC=MetronSimulator_RC1
90000	timestamp=Tue Sep 20 10:59:21 EDT 2016, trueLongitude=-116.998982, trueLatitude=30.000724, trueDepth=20.000, vE= 2.716, vN= 1.692, vU=-0.000, pitch=-0.00, roll= 0.00, heading=  58.07	DEST=princess.state&SRC=MetronSimulator_RC1
91000	timestamp=Tue Sep 20 10:59:22 EDT 2016, trueLongitude=-116.998967, trueLatitude=30.000731, trueDepth=20.000, vE= 2.716, vN= 1.691, vU=-0.000, pitch=-0.00, roll= 0.00, heading=  58.09	DEST=princess.state&SRC=MetronSimulator_RC1
92000	timestamp=Tue Sep 20 10:59:23 EDT 2016, trueLongitude=-116.998953, trueLatitude=30.000739, trueDepth=20.000, vE= 2.716, vN= 1.691, vU=-0.000, pitch=-0.00, roll= 0.00, heading=  58.10	DEST=princess.state&SRC=MetronSimulator_RC1
93000	timestamp=Tue Sep 20 10:59:24 EDT 2016, trueLongitude=-116.998939, trueLatitude=30.000747, trueDepth=20.000, vE= 2.717, vN= 1.690, vU=-0.000, pitch=-0.00, roll= 0.00, heading=  58.11	DEST=princess.state&SRC=MetronSimulator_RC1
94000	timestamp=Tue Sep 20 10:59:25 EDT 2016, trueLongitude=-116.998925, trueLatitude=30.000754, trueDepth=20.000, vE= 2.717, vN= 1.690, vU=-0.000, pitch=-0.00, roll= 0.00, heading=  58.13	DEST=princess.state&SRC=MetronSimulator_RC1
95000	timestamp=Tue Sep 20 10:59:26 EDT 2016, trueLongitude=-116.998911, trueLatitude=30.000762, trueDepth=20.000, vE= 2.718, vN= 1.689, vU=-0.000, pitch=-0.00, roll= 0.00, heading=  58.14	DEST=princess.state&SRC=MetronSimulator_RC1
96000	timestamp=Tue Sep 20 10:59:27 EDT 2016, trueLongitude=-116.998897, trueLatitude=30.000769, trueDepth=20.000, vE= 2.718, vN= 1.689, vU=-0.000, pitch=-0.00, roll= 0.00, heading=  58.15	DEST=princess.state&SRC=MetronSimulator_RC1
97000	timestamp=Tue Sep 20 10:59:28 EDT 2016, trueLongitude=-116.998883, trueLatitude=30.000777, trueDepth=20.000, vE= 2.718, vN= 1.688, vU=-0.000, pitch=-0.00, roll= 0.00, heading=  58.16	DEST=princess.state&SRC=MetronSimulator_RC1
98000	timestamp=Tue Sep 20 10:59:29 EDT 2016, trueLongitude=-116.998869, trueLatitude=30.000785, trueDepth=20.000, vE= 2.719, vN= 1.688, vU=-0.000, pitch=-0.00, roll= 0.00, heading=  58.17	DEST=princess.state&SRC=MetronSimulator_RC1
99000	timestamp=Tue Sep 20 10:59:30 EDT 2016, trueLongitude=-116.998855, trueLatitude=30.000792, trueDepth=20.000, vE= 2.719, vN= 1.687, vU=-0.000, pitch=-0.00, roll= 0.00, heading=  58.17	DEST=princess.state&SRC=MetronSimulator_RC1
100000	timestamp=Tue Sep 20 10:59:31 EDT 2016, trueLongitude=-116.998840, trueLatitude=30.000800, trueDepth=20.000, vE= 2.719, vN= 1.687, vU=-0.000, pitch=-0.00, roll= 0.00, heading=  58.18	DEST=princess.state&SRC=MetronSimulator_RC1
101000	timestamp=Tue Sep 20 10:59:32 EDT 2016, trueLongitude=-116.998826, trueLatitude=30.000807, trueDepth=20.000, vE= 2.719, vN= 1.687, vU=-0.000, pitch=-0.00, roll= 0.00, heading=  58.19	DEST=princess.state&SRC=MetronSimulator_RC1
102000	timestamp=Tue Sep 20 10:59:33 EDT 2016, trueLongitude=-116.998812, trueLatitude=30.000815, trueDepth=20.000, vE= 2.719, vN= 1.686, vU=-0.000, pitch=-0.00, roll= 0.00, heading=  58.20	DEST=princess.state&SRC=MetronSimulator_RC1
103000	timestamp=Tue Sep 20 10:59:34 EDT 2016, trueLongitude=-116.998798, trueLatitude=30.000823, trueDepth=20.000, vE= 2.720, vN= 1.686, vU=-0.000, pitch=-0.00, roll= 0.00, heading=  58.20	DEST=princess.state&SRC=MetronSimulator_RC1
104000	timestamp=Tue Sep 20 10:59:35 EDT 2016, trueLongitude=-116.998784, trueLatitude=30.000830, trueDepth=20.000, vE= 2.720, vN= 1.686, vU=-0.000, pitch=-0.00, roll= 0.00, heading=  58.21	DEST=princess.state&SRC=MetronSimulator_RC1
105000	timestamp=Tue Sep 20 10:59:36 EDT 2016, trueLongitude=-116.998770, trueLatitude=30.000838, trueDepth=20.000, vE= 2.720, vN= 1.685, vU=-0.000, pitch=-0.00, roll= 0.00, heading=  58.22	DEST=princess.state&SRC=MetronSimulator_RC1
106000	timestamp=Tue Sep 20 10:59:37 EDT 2016, trueLongitude=-116.998756, trueLatitude=30.000845, trueDepth=20.000, vE= 2.720, vN= 1.685, vU=-0.000, pitch=-0.00, roll= 0.00, heading=  58.22	DEST=princess.state&SRC=MetronSimulator_RC1
107000	timestamp=Tue Sep 20 10:59:38 EDT 2016, trueLongitude=-116.998742, trueLatitude=30.000853, trueDepth=20.000, vE= 2.720, vN= 1.685, vU=-0.000, pitch=-0.00, roll= 0.00, heading=  58.23	DEST=princess.state&SRC=MetronSimulator_RC1
108000	timestamp=Tue Sep 20 10:59:39 EDT 2016, trueLongitude=-116.998728, trueLatitude=30.000860, trueDepth=20.000, vE= 2.721, vN= 1.685, vU=-0.000, pitch=-0.00, roll= 0.00, heading=  58.23	DEST=princess.state&SRC=MetronSimulator_RC1
109000	timestamp=Tue Sep 20 10:59:40 EDT 2016, trueLongitude=-116.998713, trueLatitude=30.000868, trueDepth=20.000, vE= 2.721, vN= 1.684, vU=-0.000, pitch=-0.00, roll= 0.00, heading=  58.24	DEST=princess.state&SRC=MetronSimulator_RC1
110000	timestamp=Tue Sep 20 10:59:41 EDT 2016, trueLongitude=-116.998699, trueLatitude=30.000876, trueDepth=20.000, vE= 2.721, vN= 1.684, vU=-0.000, pitch=-0.00, roll= 0.00, heading=  58.24	DEST=princess.state&SRC=MetronSimulator_RC1
111000	timestamp=Tue Sep 20 10:59:42 EDT 2016, trueLongitude=-116.998685, trueLatitude=30.000883, trueDepth=20.000, vE= 2.721, vN= 1.684, vU=-0.000, pitch=-0.00, roll= 0.00, heading=  58.25	DEST=princess.state&SRC=MetronSimulator_RC1
112000	timestamp=Tue Sep 20 10:59:43 EDT 2016, trueLongitude=-116.998671, trueLatitude=30.000891, trueDepth=20.000, vE= 2.721, vN= 1.684, vU=-0.000, pitch=-0.00, roll= 0.00, heading=  58.25	DEST=princess.state&SRC=MetronSimulator_RC1
113000	timestamp=Tue Sep 20 10:59:44 EDT 2016, trueLongitude=-116.998657, trueLatitude=30.000898, trueDepth=20.000, vE= 2.721, vN= 1.684, vU=-0.000, pitch=-0.00, roll= 0.00, heading=  58.25	DEST=princess.state&SRC=MetronSimulator_RC1
114000	timestamp=Tue Sep 20 10:59:45 EDT 2016, trueLongitude=-116.998643, trueLatitude=30.000906, trueDepth=20.000, vE= 2.721, vN= 1.684, vU=-0.000, pitch=-0.00, roll= 0.00, heading=  58.26	DEST=princess.state&SRC=MetronSimulator_RC1
115000	timestamp=Tue Sep 20 10:59:46 EDT 2016, trueLongitude=-116.998629, trueLatitude=30.000913, trueDepth=20.000, vE= 2.721, vN= 1.683, vU=-0.000, pitch=-0.00, roll= 0.00, heading=  58.26	DEST=princess.state&SRC=MetronSimulator_RC1
116000	timestamp=Tue Sep 20 10:59:47 EDT 2016, trueLongitude=-116.998614, trueLatitude=30.000921, trueDepth=20.000, vE= 2.721, vN= 1.683, vU=-0.000, pitch=-0.00, roll= 0.00, heading=  58.26	DEST=princess.state&SRC=MetronSimulator_RC1
117000	timestamp=Tue Sep 20 10:59:48 EDT 2016, trueLongitude=-116.998600, trueLatitude=30.000929, trueDepth=20.000, vE= 2.722, vN= 1.683, vU=-0.000, pitch=-0.00, roll= 0.00, heading=  58.27	DEST=princess.state&SRC=MetronSimulator_RC1
118000	timestamp=Tue Sep 20 10:59:49 EDT 2016, trueLongitude=-116.998586, trueLatitude=30.000936, trueDepth=20.000, vE= 2.722, vN= 1.683, vU=-0.000, pitch=-0.00, roll= 0.00, heading=  58.27	DEST=princess.state&SRC=MetronSimulator_RC1
119000	timestamp=Tue Sep 20 10:59:50 EDT 2016, trueLongitude=-116.998572, trueLatitude=30.000944, trueDepth=20.000, vE= 2.722, vN= 1.683, vU=-0.000, pitch=-0.00, roll= 0.00, heading=  58.27	DEST=princess.state&SRC=MetronSimulator_RC1
120000	timestamp=Tue Sep 20 10:59:51 EDT 2016, trueLongitude=-116.998558, trueLatitude=30.000951, trueDepth=20.000, vE= 2.722, vN= 1.683, vU=-0.000, pitch=-0.00, roll= 0.00, heading=  58.27	DEST=princess.state&SRC=MetronSimulator_RC1
121000	timestamp=Tue Sep 20 10:59:52 EDT 2016, trueLongitude=-116.998544, trueLatitude=30.000959, trueDepth=20.000, vE= 2.722, vN= 1.683, vU=-0.000, pitch=-0.00, roll= 0.00, heading=  58.28	DEST=princess.state&SRC=MetronSimulator_RC1
122000	timestamp=Tue Sep 20 10:59:53 EDT 2016, trueLongitude=-116.998530, trueLatitude=30.000966, trueDepth=20.000, vE= 2.722, vN= 1.683, vU=-0.000, pitch=-0.00, roll= 0.00, heading=  58.28	DEST=princess.state&SRC=MetronSimulator_RC1
123000	timestamp=Tue Sep 20 10:59:54 EDT 2016, trueLongitude=-116.998516, trueLatitude=30.000974, trueDepth=20.000, vE= 2.722, vN= 1.682, vU=-0.000, pitch=-0.00, roll= 0.00, heading=  58.28	DEST=princess.state&SRC=MetronSimulator_RC1
124000	timestamp=Tue Sep 20 10:59:55 EDT 2016, trueLongitude=-116.998501, trueLatitude=30.000982, trueDepth=20.000, vE= 2.722, vN= 1.682, vU=-0.000, pitch=-0.00, roll= 0.00, heading=  58.28	DEST=princess.state&SRC=MetronSimulator_RC1
125000	timestamp=Tue Sep 20 10:59:56 EDT 2016, trueLongitude=-116.998487, trueLatitude=30.000989, trueDepth=20.000, vE= 2.722, vN= 1.682, vU=-0.000, pitch=-0.00, roll= 0.00, heading=  58.28	DEST=princess.state&SRC=MetronSimulator_RC1
126000	timestamp=Tue Sep 20 10:59:57 EDT 2016, trueLongitude=-116.998473, trueLatitude=30.000997, trueDepth=20.000, vE= 2.722, vN= 1.682, vU=-0.000, pitch=-0.00, roll= 0.00, heading=  58.28	DEST=princess.state&SRC=MetronSimulator_RC1
127000	timestamp=Tue Sep 20 10:59:58 EDT 2016, trueLongitude=-116.998430, trueLatitude=30.001029, trueDepth=20.000, vE=12.722, vN=11.682, vU=-0.000, pitch=-0.00, roll= 0.00, heading=  58.29	DEST=princess.state&SRC=MetronSimulator_RC1
128000	timestamp=Tue Sep 20 10:59:59 EDT 2016, trueLongitude=-116.998364, trueLatitude=30.001082, trueDepth=20.000, vE=12.722, vN=11.682, vU=-0.000, pitch=-0.00, roll= 0.00, heading=  58.29	DEST=princess.state&SRC=MetronSimulator_RC1
129000	timestamp=Tue Sep 20 11:00:00 EDT 2016, trueLongitude=-116.998298, trueLatitude=30.001134, trueDepth=20.000, vE=12.722, vN=11.682, vU=-0.000, pitch=-0.00, roll= 0.00, heading=  58.29	DEST=princess.state&SRC=MetronSimulator_RC1
130000	timestamp=Tue Sep 20 11:00:01 EDT 2016, trueLongitude=-116.998232, trueLatitude=30.001187, trueDepth=20.000, vE=12.722, vN=11.682, vU=-0.000, pitch=-0.00, roll= 0.00, heading=  58.29	DEST=princess.state&SRC=MetronSimulator_RC1
131000	timestamp=Tue Sep 20 11:00:02 EDT 2016, trueLongitude=-116.998166, trueLatitude=30.001239, trueDepth=20.000, vE=12.722, vN=11.682, vU=-0.000, pitch=-0.00, roll= 0.00, heading=  58.29	DEST=princess.state&SRC=MetronSimulator_RC1
132000	timestamp=Tue Sep 20 11:00:03 EDT 2016, trueLongitude=-116.998100, trueLatitude=30.001292, trueDepth=20.000, vE=12.722, vN=11.682, vU=-0.000, pitch=-0.00, roll= 0.00, heading=  58.29	DEST=princess.state&SRC=MetronSimulator_RC1
133000	timestamp=Tue Sep 20 11:00:04 EDT 2016, trueLongitude=-116.998034, trueLatitude=30.001345, trueDepth=20.000, vE=12.722, vN=11.682, vU=-0.000, pitch=-0.00, roll= 0.00, heading=  58.29	DEST=princess.state&SRC=MetronSimulator_RC1
134000	timestamp=Tue Sep 20 11:00:05 EDT 2016, trueLongitude=-116.997968, trueLatitude=30.001397, trueDepth=20.000, vE=12.722, vN=11.682, vU=-0.000, pitch=-0.00, roll= 0.00, heading=  58.29	DEST=princess.state&SRC=MetronSimulator_RC1
135000	timestamp=Tue Sep 20 11:00:06 EDT 2016, trueLongitude=-116.997902, trueLatitude=30.001450, trueDepth=20.000, vE=12.722, vN=11.682, vU=-0.000, pitch=-0.00, roll= 0.00, heading=  58.30	DEST=princess.state&SRC=MetronSimulator_RC1
136000	timestamp=Tue Sep 20 11:00:07 EDT 2016, trueLongitude=-116.997836, trueLatitude=30.001502, trueDepth=20.000, vE=12.722, vN=11.682, vU=-0.000, pitch=-0.00, roll= 0.00, heading=  58.30	DEST=princess.state&SRC=MetronSimulator_RC1
137000	timestamp=Tue Sep 20 11:00:08 EDT 2016, trueLongitude=-116.997770, trueLatitude=30.001555, trueDepth=20.000, vE=12.723, vN=11.682, vU=-0.000, pitch=-0.00, roll= 0.00, heading=  58.30	DEST=princess.state&SRC=MetronSimulator_RC1
138000	timestamp=Tue Sep 20 11:00:09 EDT 2016, trueLongitude=-116.997703, trueLatitude=30.001607, trueDepth=20.000, vE=12.723, vN=11.682, vU=-0.000, pitch=-0.00, roll= 0.00, heading=  58.30	DEST=princess.state&SRC=MetronSimulator_RC1
139000	timestamp=Tue Sep 20 11:00:10 EDT 2016, trueLongitude=-116.997637, trueLatitude=30.001660, trueDepth=20.000, vE=12.723, vN=11.682, vU=-0.000, pitch=-0.00, roll= 0.00, heading=  58.30	DEST=princess.state&SRC=MetronSimulator_RC1
140000	timestamp=Tue Sep 20 11:00:11 EDT 2016, trueLongitude=-116.997571, trueLatitude=30.001712, trueDepth=20.000, vE=12.723, vN=11.682, vU=-0.000, pitch=-0.00, roll= 0.00, heading=  58.30	DEST=princess.state&SRC=MetronSimulator_RC1
141000	timestamp=Tue Sep 20 11:00:12 EDT 2016, trueLongitude=-116.997505, trueLatitude=30.001765, trueDepth=20.000, vE=12.723, vN=11.682, vU=-0.000, pitch=-0.00, roll= 0.00, heading=  58.30	DEST=princess.state&SRC=MetronSimulator_RC1
142000	timestamp=Tue Sep 20 11:00:13 EDT 2016, trueLongitude=-116.997439, trueLatitude=30.001817, trueDepth=20.000, vE=12.723, vN=11.681, vU=-0.000, pitch=-0.00, roll= 0.00, heading=  58.30	DEST=princess.state&SRC=MetronSimulator_RC1
143000	timestamp=Tue Sep 20 11:00:14 EDT 2016, trueLongitude=-116.997373, trueLatitude=30.001870, trueDepth=20.000, vE=12.723, vN=11.681, vU=-0.000, pitch=-0.00, roll= 0.00, heading=  58.30	DEST=princess.state&SRC=MetronSimulator_RC1
144000	timestamp=Tue Sep 20 11:00:15 EDT 2016, trueLongitude=-116.997307, trueLatitude=30.001922, trueDepth=20.000, vE=12.723, vN=11.681, vU=-0.000, pitch=-0.00, roll= 0.00, heading=  58.30	DEST=princess.state&SRC=MetronSimulator_RC1
145000	timestamp=Tue Sep 20 11:00:16 EDT 2016, trueLongitude=-116.997241, trueLatitude=30.001975, trueDepth=20.000, vE=12.723, vN=11.681, vU=-0.000, pitch=-0.00, roll= 0.00, heading=  58.30	DEST=princess.state&SRC=MetronSimulator_RC1
146000	timestamp=Tue Sep 20 11:00:17 EDT 2016, trueLongitude=-116.997175, trueLatitude=30.002004, trueDepth=20.000, vE=12.723, vN= 1.681, vU=-0.000, pitch=-0.00, roll= 0.00, heading=  58.30	DEST=princess.state&SRC=MetronSimulator_RC1
147000	timestamp=Tue Sep 20 11:00:18 EDT 2016, trueLongitude=-116.997109, trueLatitude=30.002012, trueDepth=20.000, vE=12.723, vN= 1.681, vU=-0.000, pitch=-0.00, roll= 0.00, heading=  58.30	DEST=princess.state&SRC=MetronSimulator_RC1
148000	timestamp=Tue Sep 20 11:00:19 EDT 2016, trueLongitude=-116.997043, trueLatitude=30.002019, trueDepth=20.000, vE=12.723, vN= 1.681, vU=-0.000, pitch=-0.00, roll= 0.00, heading=  58.30	DEST=princess.state&SRC=MetronSimulator_RC1
149000	timestamp=Tue Sep 20 11:00:20 EDT 2016, trueLongitude=-116.996977, trueLatitude=30.002027, trueDepth=20.000, vE=12.723, vN= 1.681, vU=-0.000, pitch=-0.00, roll= 0.00, heading=  58.30	DEST=princess.state&SRC=MetronSimulator_RC1
150000	timestamp=Tue Sep 20 11:00:21 EDT 2016, trueLongitude=-116.996911, trueLatitude=30.002034, trueDepth=20.000, vE=12.723, vN= 1.681, vU=-0.000, pitch=-0.00, roll= 0.00, heading=  58.30	DEST=princess.state&SRC=MetronSimulator_RC1
151000	timestamp=Tue Sep 20 11:00:22 EDT 2016, trueLongitude=-116.996845, trueLatitude=30.002042, trueDepth=20.000, vE=12.723, vN= 1.681, vU=-0.000, pitch=-0.00, roll= 0.00, heading=  58.30	DEST=princess.state&SRC=MetronSimulator_RC1
152000	timestamp=Tue Sep 20 11:00:23 EDT 2016, trueLongitude=-116.996779, trueLatitude=30.002049, trueDepth=20.000, vE=12.723, vN= 1.681, vU=-0.000, pitch=-0.00, roll= 0.00, heading=  58.30	DEST=princess.state&SRC=MetronSimulator_RC1
153000	timestamp=Tue Sep 20 11:00:24 EDT 2016, trueLongitude=-116.996713, trueLatitude=30.002057, trueDepth=20.000, vE=12.723, vN= 1.681, vU=-0.000, pitch=-0.00, roll= 0.00, heading=  58.31	DEST=princess.state&SRC=MetronSimulator_RC1
154000	timestamp=Tue Sep 20 11:00:25 EDT 2016, trueLongitude=-116.996647, trueLatitude=30.002064, trueDepth=20.000, vE=12.723, vN= 1.681, vU=-0.000, pitch=-0.00, roll= 0.00, heading=  58.31	DEST=princess.state&SRC=MetronSimulator_RC1
155000	timestamp=Tue Sep 20 11:00:26 EDT 2016, trueLongitude=-116.996580, trueLatitude=30.002072, trueDepth=20.000, vE=12.723, vN= 1.681, vU=-0.000, pitch=-0.00, roll= 0.00, heading=  58.31	DEST=princess.state&SRC=MetronSimulator_RC1
156000	timestamp=Tue Sep 20 11:00:27 EDT 2016, trueLongitude=-116.996514, trueLatitude=30.002080, trueDepth=20.000, vE=12.723, vN= 1.681, vU=-0.000, pitch=-0.00, roll= 0.00, heading=  58.31	DEST=princess.state&SRC=MetronSimulator_RC1
157000	timestamp=Tue Sep 20 11:00:28 EDT 2016, trueLongitude=-116.996448, trueLatitude=30.002087, trueDepth=20.000, vE=12.723, vN= 1.681, vU=-0.000, pitch=-0.00, roll= 0.00, heading=  58.31	DEST=princess.state&SRC=MetronSimulator_RC1
158000	timestamp=Tue Sep 20 11:00:29 EDT 2016, trueLongitude=-116.996382, trueLatitude=30.002095, trueDepth=20.000, vE=12.723, vN= 1.681, vU=-0.000, pitch=-0.00, roll= 0.00, heading=  58.31	DEST=princess.state&SRC=MetronSimulator_RC1
159000	timestamp=Tue Sep 20 11:00:30 EDT 2016, trueLongitude=-116.996316, trueLatitude=30.002102, trueDepth=20.000, vE=12.723, vN= 1.681, vU=-0.000, pitch=-0.00, roll= 0.00, heading=  58.31	DEST=princess.state&SRC=MetronSimulator_RC1
160000	timestamp=Tue Sep 20 11:00:31 EDT 2016, trueLongitude=-116.996250, trueLatitude=30.002110, trueDepth=20.000, vE=12.723, vN= 1.681, vU=-0.000, pitch=-0.00, roll= 0.00, heading=  58.31	DEST=princess.state&SRC=MetronSimulator_RC1
161000	timestamp=Tue Sep 20 11:00:32 EDT 2016, trueLongitude=-116.996184, trueLatitude=30.002117, trueDepth=20.000, vE=12.723, vN= 1.681, vU=-0.000, pitch=-0.00, roll= 0.00, heading=  58.31	DEST=princess.state&SRC=MetronSimulator_RC1
162000	timestamp=Tue Sep 20 11:00:33 EDT 2016, trueLongitude=-116.996118, trueLatitude=30.002125, trueDepth=20.000, vE=12.723, vN= 1.681, vU=-0.000, pitch=-0.00, roll= 0.00, heading=  58.31	DEST=princess.state&SRC=MetronSimulator_RC1
163000	timestamp=Tue Sep 20 11:00:34 EDT 2016, trueLongitude=-116.996052, trueLatitude=30.002132, trueDepth=20.000, vE=12.723, vN= 1.681, vU=-0.000, pitch=-0.00, roll= 0.00, heading=  58.31	DEST=princess.state&SRC=MetronSimulator_RC1
164000	timestamp=Tue Sep 20 11:00:35 EDT 2016, trueLongitude=-116.995986, trueLatitude=30.002140, trueDepth=20.000, vE=12.723, vN= 1.681, vU=-0.000, pitch=-0.00, roll= 0.00, heading=  58.31	DEST=princess.state&SRC=MetronSimulator_RC1
165000	timestamp=Tue Sep 20 11:00:36 EDT 2016, trueLongitude=-116.995920, trueLatitude=30.002148, trueDepth=20.000, vE=12.723, vN= 1.681, vU=-0.000, pitch=-0.00, roll= 0.00, heading=  58.31	DEST=princess.state&SRC=MetronSimulator_RC1
166000	timestamp=Tue Sep 20 11:00:37 EDT 2016, trueLongitude=-116.995854, trueLatitude=30.002155, trueDepth=20.000, vE=12.723, vN= 1.681, vU=-0.000, pitch=-0.00, roll= 0.00, heading=  58.31	DEST=princess.state&SRC=MetronSimulator_RC1
167000	timestamp=Tue Sep 20 11:00:38 EDT 2016, trueLongitude=-116.995788, trueLatitude=30.002163, trueDepth=20.000, vE=12.723, vN= 1.681, vU=-0.000, pitch=-0.00, roll= 0.00, heading=  58.31	DEST=princess.state&SRC=MetronSimulator_RC1
168000	timestamp=Tue Sep 20 11:00:39 EDT 2016, trueLongitude=-116.995722, trueLatitude=30.002170, trueDepth=20.000, vE=12.723, vN= 1.681, vU=-0.000, pitch=-0.00, roll= 0.00, heading=  58.31	DEST=princess.state&SRC=MetronSimulator_RC1
169000	timestamp=Tue Sep 20 11:00:40 EDT 2016, trueLongitude=-116.995656, trueLatitude=30.002178, trueDepth=20.000, vE=12.723, vN= 1.681, vU=-0.000, pitch=-0.00, roll= 0.00, heading=  58.31	DEST=princess.state&SRC=MetronSimulator_RC1
170000	timestamp=Tue Sep 20 11:00:41 EDT 2016, trueLongitude=-116.995589, trueLatitude=30.002185, trueDepth=20.000, vE=12.723, vN= 1.681, vU=-0.000, pitch=-0.00, roll= 0.00, heading=  58.31	DEST=princess.state&SRC=MetronSimulator_RC1
171000	timestamp=Tue Sep 20 11:00:42 EDT 2016, trueLongitude=-116.995523, trueLatitude=30.002193, trueDepth=20.000, vE=12.723, vN= 1.681, vU=-0.000, pitch=-0.00, roll= 0.00, heading=  58.31	DEST=princess.state&SRC=MetronSimulator_RC1
172000	timestamp=Tue Sep 20 11:00:43 EDT 2016, trueLongitude=-116.995457, trueLatitude=30.002201, trueDepth=20.000, vE=12.723, vN= 1.681, vU=-0.000, pitch=-0.00, roll= 0.00, heading=  58.31	DEST=princess.state&SRC=MetronSimulator_RC1
173000	timestamp=Tue Sep 20 11:00:44 EDT 2016, trueLongitude=-116.995391, trueLatitude=30.002208, trueDepth=20.000, vE=12.723, vN= 1.681, vU=-0.000, pitch=-0.00, roll= 0.00, heading=  58.31	DEST=princess.state&SRC=MetronSimulator_RC1
174000	timestamp=Tue Sep 20 11:00:45 EDT 2016, trueLongitude=-116.995325, trueLatitude=30.002216, trueDepth=20.000, vE=12.723, vN= 1.681, vU=-0.000, pitch=-0.00, roll= 0.00, heading=  58.31	DEST=princess.state&SRC=MetronSimulator_RC1
175000	timestamp=Tue Sep 20 11:00:46 EDT 2016, trueLongitude=-116.995259, trueLatitude=30.002223, trueDepth=20.000, vE=12.723, vN= 1.681, vU=-0.000, pitch=-0.00, roll= 0.00, heading=  58.31	DEST=princess.state&SRC=MetronSimulator_RC1
176000	timestamp=Tue Sep 20 11:00:47 EDT 2016, trueLongitude=-116.995193, trueLatitude=30.002231, trueDepth=20.000, vE=12.723, vN= 1.681, vU=-0.000, pitch=-0.00, roll= 0.00, heading=  58.31	DEST=princess.state&SRC=MetronSimulator_RC1
177000	timestamp=Tue Sep 20 11:00:48 EDT 2016, trueLongitude=-116.995127, trueLatitude=30.002238, trueDepth=20.000, vE=12.723, vN= 1.681, vU=-0.000, pitch=-0.00, roll= 0.00, heading=  58.31	DEST=princess.state&SRC=MetronSimulator_RC1
178000	timestamp=Tue Sep 20 11:00:49 EDT 2016, trueLongitude=-116.995061, trueLatitude=30.002246, trueDepth=20.000, vE=12.723, vN= 1.681, vU=-0.000, pitch=-0.00, roll= 0.00, heading=  58.31	DEST=princess.state&SRC=MetronSimulator_RC1
179000	timestamp=Tue Sep 20 11:00:50 EDT 2016, trueLongitude=-116.994995, trueLatitude=30.002253, trueDepth=20.000, vE=12.723, vN= 1.681, vU=-0.000, pitch=-0.00, roll= 0.00, heading=  58.31	DEST=princess.state&SRC=MetronSimulator_RC1
180000	timestamp=Tue Sep 20 11:00:51 EDT 2016, trueLongitude=-116.994929, trueLatitude=30.002261, trueDepth=20.000, vE=12.723, vN= 1.681, vU=-0.000, pitch=-0.00, roll= 0.00, heading=  58.31	DEST=princess.state&SRC=MetronSimulator_RC1
181000	timestamp=Tue Sep 20 11:00:52 EDT 2016, trueLongitude=-116.994863, trueLatitude=30.002269, trueDepth=20.000, vE=12.723, vN= 1.681, vU=-0.000, pitch=-0.00, roll= 0.00, heading=  58.31	DEST=princess.state&SRC=MetronSimulator_RC1
182000	timestamp=Tue Sep 20 11:00:53 EDT 2016, trueLongitude=-116.994797, trueLatitude=30.002276, trueDepth=20.000, vE=12.723, vN= 1.681, vU=-0.000, pitch=-0.00, roll= 0.00, heading=  58.31	DEST=princess.state&SRC=MetronSimulator_RC1
183000	timestamp=Tue Sep 20 11:00:54 EDT 2016, trueLongitude=-116.994731, trueLatitude=30.002284, trueDepth=20.000, vE=12.723, vN= 1.681, vU=-0.000, pitch=-0.00, roll= 0.00, heading=  58.31	DEST=princess.state&SRC=MetronSimulator_RC1
184000	timestamp=Tue Sep 20 11:00:55 EDT 2016, trueLongitude=-116.994665, trueLatitude=30.002291, trueDepth=20.000, vE=12.723, vN= 1.681, vU=-0.000, pitch=-0.00, roll= 0.00, heading=  58.31	DEST=princess.state&SRC=MetronSimulator_RC1
185000	timestamp=Tue Sep 20 11:00:56 EDT 2016, trueLongitude=-116.994599, trueLatitude=30.002299, trueDepth=20.000, vE=12.723, vN= 1.681, vU=-0.000, pitch=-0.00, roll= 0.00, heading=  58.31	DEST=princess.state&SRC=MetronSimulator_RC1
186000	timestamp=Tue Sep 20 11:00:57 EDT 2016, trueLongitude=-116.994532, trueLatitude=30.002306, trueDepth=20.000, vE=12.723, vN= 1.681, vU=-0.000, pitch=-0.00, roll= 0.00, heading=  58.31	DEST=princess.state&SRC=MetronSimulator_RC1
187000	timestamp=Tue Sep 20 11:00:58 EDT 2016, trueLongitude=-116.994466, trueLatitude=30.002314, trueDepth=20.000, vE=12.723, vN= 1.681, vU=-0.000, pitch=-0.00, roll= 0.00, heading=  58.31	DEST=princess.state&SRC=MetronSimulator_RC1
188000	timestamp=Tue Sep 20 11:00:59 EDT 2016, trueLongitude=-116.994400, trueLatitude=30.002321, trueDepth=20.000, vE=12.723, vN= 1.681, vU=-0.000, pitch=-0.00, roll= 0.00, heading=  58.31	DEST=princess.state&SRC=MetronSimulator_RC1
189000	timestamp=Tue Sep 20 11:01:00 EDT 2016, trueLongitude=-116.994334, trueLatitude=30.002329, trueDepth=20.000, vE=12.723, vN= 1.681, vU=-0.000, pitch=-0.00, roll= 0.00, heading=  58.31	DEST=princess.state&SRC=MetronSimulator_RC1
190000	timestamp=Tue Sep 20 11:01:01 EDT 2016, trueLongitude=-116.994268, trueLatitude=30.002337, trueDepth=20.000, vE=12.723, vN= 1.681, vU=-0.000, pitch=-0.00, roll= 0.00, heading=  58.31	DEST=princess.state&SRC=MetronSimulator_RC1
191000	timestamp=Tue Sep 20 11:01:02 EDT 2016, trueLongitude=-116.994202, trueLatitude=30.002344, trueDepth=20.000, vE=12.723, vN= 1.681, vU=-0.000, pitch=-0.00, roll= 0.00, heading=  58.31	DEST=princess.state&SRC=MetronSimulator_RC1
192000	timestamp=Tue Sep 20 11:01:03 EDT 2016, trueLongitude=-116.994136, trueLatitude=30.002352, trueDepth=20.000, vE=12.723, vN= 1.681, vU=-0.000, pitch=-0.00, roll= 0.00, heading=  58.31	DEST=princess.state&SRC=MetronSimulator_RC1
193000	timestamp=Tue Sep 20 11:01:04 EDT 2016, trueLongitude=-116.994070, trueLatitude=30.002359, trueDepth=20.000, vE=12.723, vN= 1.681, vU=-0.000, pitch=-0.00, roll= 0.00, heading=  58.31	DEST=princess.state&SRC=MetronSimulator_RC1
194000	timestamp=Tue Sep 20 11:01:05 EDT 2016, trueLongitude=-116.994004, trueLatitude=30.002367, trueDepth=20.000, vE=12.723, vN= 1.681, vU=-0.000, pitch=-0.00, roll= 0.00, heading=  58.31	DEST=princess.state&SRC=MetronSimulator_RC1
195000	timestamp=Tue Sep 20 11:01:06 EDT 2016, trueLongitude=-116.993938, trueLatitude=30.002374, trueDepth=20.000, vE=12.723, vN= 1.681, vU=-0.000, pitch=-0.00, roll= 0.00, heading=  58.31	DEST=princess.state&SRC=MetronSimulator_RC1
196000	timestamp=Tue Sep 20 11:01:07 EDT 2016, trueLongitude=-116.993872, trueLatitude=30.002382, trueDepth=20.000, vE=12.723, vN= 1.681, vU=-0.000, pitch=-0.00, roll= 0.00, heading=  58.31	DEST=princess.state&SRC=MetronSimulator_RC1
197000	timestamp=Tue Sep 20 11:01:08 EDT 2016, trueLongitude=-116.993806, trueLatitude=30.002390, trueDepth=20.000, vE=12.723, vN= 1.681, vU=-0.000, pitch=-0.00, roll= 0.00, heading=  58.31	DEST=princess.state&SRC=MetronSimulator_RC1
198000	timestamp=Tue Sep 20 11:01:09 EDT 2016, trueLongitude=-116.993740, trueLatitude=30.002397, trueDepth=20.000, vE=12.723, vN= 1.681, vU=-0.000, pitch=-0.00, roll= 0.00, heading=  58.31	DEST=princess.state&SRC=MetronSimulator_RC1
199000	timestamp=Tue Sep 20 11:01:10 EDT 2016, trueLongitude=-116.993674, trueLatitude=30.002405, trueDepth=20.000, vE=12.723, vN= 1.681, vU=-0.000, pitch=-0.00, roll= 0.00, heading=  58.31	DEST=princess.state&SRC=MetronSimulator_RC1
200000	timestamp=Tue Sep 20 11:01:11 EDT 2016, trueLongitude=-116.993608, trueLatitude=30.002412, trueDepth=20.000, vE=12.723, vN= 1.681, vU=-0.000, pitch=-0.00, roll= 0.00, heading=  58.31	DEST=princess.state&SRC=MetronSimulator_RC1
201000	timestamp=Tue Sep 20 11:01:12 EDT 2016, trueLongitude=-116.993541, trueLatitude=30.002420, trueDepth=20.000, vE=12.723, vN= 1.681, vU=-0.000, pitch=-0.00, roll= 0.00, heading=  58.31	DEST=princess.state&SRC=MetronSimulator_RC1
202000	timestamp=Tue Sep 20 11:01:13 EDT 2016, trueLongitude=-116.993475, trueLatitude=30.002427, trueDepth=20.000, vE=12.723, vN= 1.681, vU=-0.000, pitch=-0.00, roll= 0.00, heading=  58.31	DEST=princess.state&SRC=MetronSimulator_RC1
203000	timestamp=Tue Sep 20 11:01:14 EDT 2016, trueLongitude=-116.993409, trueLatitude=30.002435, trueDepth=20.000, vE=12.723, vN= 1.681, vU=-0.000, pitch=-0.00, roll= 0.00, heading=  58.31	DEST=princess.state&SRC=MetronSimulator_RC1
204000	timestamp=Tue Sep 20 11:01:15 EDT 2016, trueLongitude=-116.993343, trueLatitude=30.002442, trueDepth=20.000, vE=12.723, vN= 1.681, vU=-0.000, pitch=-0.00, roll= 0.00, heading=  58.31	DEST=princess.state&SRC=MetronSimulator_RC1
205000	timestamp=Tue Sep 20 11:01:16 EDT 2016, trueLongitude=-116.993277, trueLatitude=30.002450, trueDepth=20.000, vE=12.723, vN= 1.681, vU=-0.000, pitch=-0.00, roll= 0.00, heading=  58.31	DEST=princess.state&SRC=MetronSimulator_RC1
206000	timestamp=Tue Sep 20 11:01:17 EDT 2016, trueLongitude=-116.993211, trueLatitude=30.002458, trueDepth=20.000, vE=12.723, vN= 1.681, vU=-0.000, pitch=-0.00, roll= 0.00, heading=  58.31	DEST=princess.state&SRC=MetronSimulator_RC1
207000	timestamp=Tue Sep 20 11:01:18 EDT 2016, trueLongitude=-116.993145, trueLatitude=30.002465, trueDepth=20.000, vE=12.723, vN= 1.681, vU=-0.000, pitch=-0.00, roll= 0.00, heading=  58.31	DEST=princess.state&SRC=MetronSimulator_RC1
208000	timestamp=Tue Sep 20 11:01:19 EDT 2016, trueLongitude=-116.993079, trueLatitude=30.002473, trueDepth=20.000, vE=12.723, vN= 1.681, vU=-0.000, pitch=-0.00, roll= 0.00, heading=  58.31	DEST=princess.state&SRC=MetronSimulator_RC1
209000	timestamp=Tue Sep 20 11:01:20 EDT 2016, trueLongitude=-116.993013, trueLatitude=30.002480, trueDepth=20.000, vE=12.723, vN= 1.681, vU=-0.000, pitch=-0.00, roll= 0.00, heading=  58.31	DEST=princess.state&SRC=MetronSimulator_RC1
210000	timestamp=Tue Sep 20 11:01:21 EDT 2016, trueLongitude=-116.992947, trueLatitude=30.002488, trueDepth=20.000, vE=12.723, vN= 1.681, vU=-0.000, pitch=-0.00, roll= 0.00, heading=  58.31	DEST=princess.state&SRC=MetronSimulator_RC1
211000	timestamp=Tue Sep 20 11:01:22 EDT 2016, trueLongitude=-116.992881, trueLatitude=30.002495, trueDepth=20.000, vE=12.723, vN= 1.681, vU=-0.000, pitch=-0.00, roll= 0.00, heading=  58.31	DEST=princess.state&SRC=MetronSimulator_RC1
212000	timestamp=Tue Sep 20 11:01:23 EDT 2016, trueLongitude=-116.992815, trueLatitude=30.002503, trueDepth=20.000, vE=12.723, vN= 1.681, vU=-0.000, pitch=-0.00, roll= 0.00, heading=  58.31	DEST=princess.state&SRC=MetronSimulator_RC1
213000	timestamp=Tue Sep 20 11:01:24 EDT 2016, trueLongitude=-116.992749, trueLatitude=30.002510, trueDepth=20.000, vE=12.723, vN= 1.681, vU=-0.000, pitch=-0.00, roll= 0.00, heading=  58.31	DEST=princess.state&SRC=MetronSimulator_RC1
214000	timestamp=Tue Sep 20 11:01:25 EDT 2016, trueLongitude=-116.992683, trueLatitude=30.002518, trueDepth=20.000, vE=12.723, vN= 1.681, vU=-0.000, pitch=-0.00, roll= 0.00, heading=  58.31	DEST=princess.state&SRC=MetronSimulator_RC1
215000	timestamp=Tue Sep 20 11:01:26 EDT 2016, trueLongitude=-116.992617, trueLatitude=30.002526, trueDepth=20.000, vE=12.723, vN= 1.681, vU=-0.000, pitch=-0.00, roll= 0.00, heading=  58.31	DEST=princess.state&SRC=MetronSimulator_RC1
216000	timestamp=Tue Sep 20 11:01:27 EDT 2016, trueLongitude=-116.992551, trueLatitude=30.002533, trueDepth=20.000, vE=12.723, vN= 1.681, vU=-0.000, pitch=-0.00, roll= 0.00, heading=  58.31	DEST=princess.state&SRC=MetronSimulator_RC1
217000	timestamp=Tue Sep 20 11:01:28 EDT 2016, trueLongitude=-116.992484, trueLatitude=30.002541, trueDepth=20.000, vE=12.723, vN= 1.681, vU=-0.000, pitch=-0.00, roll= 0.00, heading=  58.31	DEST=princess.state&SRC=MetronSimulator_RC1
218000	timestamp=Tue Sep 20 11:01:29 EDT 2016, trueLongitude=-116.992418, trueLatitude=30.002548, trueDepth=20.000, vE=12.723, vN= 1.681, vU=-0.000, pitch=-0.00, roll= 0.00, heading=  58.31	DEST=princess.state&SRC=MetronSimulator_RC1
219000	timestamp=Tue Sep 20 11:01:30 EDT 2016, trueLongitude=-116.992352, trueLatitude=30.002556, trueDepth=20.000, vE=12.723, vN= 1.681, vU=-0.000, pitch=-0.00, roll= 0.00, heading=  58.31	DEST=princess.state&SRC=MetronSimulator_RC1
220000	timestamp=Tue Sep 20 11:01:31 EDT 2016, trueLongitude=-116.992286, trueLatitude=30.002563, trueDepth=20.000, vE=12.723, vN= 1.681, vU=-0.000, pitch=-0.00, roll= 0.00, heading=  58.31	DEST=princess.state&SRC=MetronSimulator_RC1
221000	timestamp=Tue Sep 20 11:01:32 EDT 2016, trueLongitude=-116.992220, trueLatitude=30.002571, trueDepth=20.000, vE=12.723, vN= 1.681, vU=-0.000, pitch=-0.00, roll= 0.00, heading=  58.31	DEST=princess.state&SRC=MetronSimulator_RC1
222000	timestamp=Tue Sep 20 11:01:33 EDT 2016, trueLongitude=-116.992154, trueLatitude=30.002579, trueDepth=20.000, vE=12.723, vN= 1.681, vU=-0.000, pitch=-0.00, roll= 0.00, heading=  58.31	DEST=princess.state&SRC=MetronSimulator_RC1
223000	timestamp=Tue Sep 20 11:01:34 EDT 2016, trueLongitude=-116.992088, trueLatitude=30.002586, trueDepth=20.000, vE=12.723, vN= 1.681, vU=-0.000, pitch=-0.00, roll= 0.00, heading=  58.31	DEST=princess.state&SRC=MetronSimulator_RC1
224000	timestamp=Tue Sep 20 11:01:35 EDT 2016, trueLongitude=-116.992022, trueLatitude=30.002594, trueDepth=20.000, vE=12.723, vN= 1.681, vU=-0.000, pitch=-0.00, roll= 0.00, heading=  58.31	DEST=princess.state&SRC=MetronSimulator_RC1
225000	timestamp=Tue Sep 20 11:01:36 EDT 2016, trueLongitude=-116.991956, trueLatitude=30.002601, trueDepth=20.000, vE=12.723, vN= 1.681, vU=-0.000, pitch=-0.00, roll= 0.00, heading=  58.31	DEST=princess.state&SRC=MetronSimulator_RC1
226000	timestamp=Tue Sep 20 11:01:37 EDT 2016, trueLongitude=-116.991890, trueLatitude=30.002609, trueDepth=20.000, vE=12.723, vN= 1.681, vU=-0.000, pitch=-0.00, roll= 0.00, heading=  58.31	DEST=princess.state&SRC=MetronSimulator_RC1
227000	timestamp=Tue Sep 20 11:01:38 EDT 2016, trueLongitude=-116.991824, trueLatitude=30.002616, trueDepth=20.000, vE=12.723, vN= 1.681, vU=-0.000, pitch=-0.00, roll= 0.00, heading=  58.31	DEST=princess.state&SRC=MetronSimulator_RC1
228000	timestamp=Tue Sep 20 11:01:39 EDT 2016, trueLongitude=-116.991758, trueLatitude=30.002624, trueDepth=20.000, vE=12.723, vN= 1.681, vU=-0.000, pitch=-0.00, roll= 0.00, heading=  58.31	DEST=princess.state&SRC=MetronSimulator_RC1
229000	timestamp=Tue Sep 20 11:01:40 EDT 2016, trueLongitude=-116.991692, trueLatitude=30.002631, trueDepth=20.000, vE=12.723, vN= 1.681, vU=-0.000, pitch=-0.00, roll= 0.00, heading=  58.31	DEST=princess.state&SRC=MetronSimulator_RC1
230000	timestamp=Tue Sep 20 11:01:41 EDT 2016, trueLongitude=-116.991626, trueLatitude=30.002639, trueDepth=20.000, vE=12.723, vN= 1.681, vU=-0.000, pitch=-0.00, roll= 0.00, heading=  58.31	DEST=princess.state&SRC=MetronSimulator_RC1
231000	timestamp=Tue Sep 20 11:01:42 EDT 2016, trueLongitude=-116.991560, trueLatitude=30.002647, trueDepth=20.000, vE=12.723, vN= 1.681, vU=-0.000, pitch=-0.00, roll= 0.00, heading=  58.31	DEST=princess.state&SRC=MetronSimulator_RC1
232000	timestamp=Tue Sep 20 11:01:43 EDT 2016, trueLongitude=-116.991493, trueLatitude=30.002654, trueDepth=20.000, vE=12.723, vN= 1.681, vU=-0.000, pitch=-0.00, roll= 0.00, heading=  58.31	DEST=princess.state&SRC=MetronSimulator_RC1
233000	timestamp=Tue Sep 20 11:01:44 EDT 2016, trueLongitude=-116.991427, trueLatitude=30.002662, trueDepth=20.000, vE=12.723, vN= 1.681, vU=-0.000, pitch=-0.00, roll= 0.00, heading=  58.31	DEST=princess.state&SRC=MetronSimulator_RC1
234000	timestamp=Tue Sep 20 11:01:45 EDT 2016, trueLongitude=-116.991361, trueLatitude=30.002669, trueDepth=20.000, vE=12.723, vN= 1.681, vU=-0.000, pitch=-0.00, roll= 0.00, heading=  58.31	DEST=princess.state&SRC=MetronSimulator_RC1
235000	timestamp=Tue Sep 20 11:01:46 EDT 2016, trueLongitude=-116.991295, trueLatitude=30.002677, trueDepth=20.000, vE=12.723, vN= 1.681, vU=-0.000, pitch=-0.00, roll= 0.00, heading=  58.31	DEST=princess.state&SRC=MetronSimulator_RC1
236000	timestamp=Tue Sep 20 11:01:47 EDT 2016, trueLongitude=-116.991229, trueLatitude=30.002684, trueDepth=20.000, vE=12.723, vN= 1.681, vU=-0.000, pitch=-0.00, roll= 0.00, heading=  58.31	DEST=princess.state&SRC=MetronSimulator_RC1
237000	timestamp=Tue Sep 20 11:01:48 EDT 2016, trueLongitude=-116.991163, trueLatitude=30.002692, trueDepth=20.000, vE=12.723, vN= 1.681, vU=-0.000, pitch=-0.00, roll= 0.00, heading=  58.31	DEST=princess.state&SRC=MetronSimulator_RC1
238000	timestamp=Tue Sep 20 11:01:49 EDT 2016, trueLongitude=-116.991097, trueLatitude=30.002699, trueDepth=20.000, vE=12.723, vN= 1.681, vU=-0.000, pitch=-0.00, roll= 0.00, heading=  58.31	DEST=princess.state&SRC=MetronSimulator_RC1
239000	timestamp=Tue Sep 20 11:01:50 EDT 2016, trueLongitude=-116.991031, trueLatitude=30.002707, trueDepth=20.000, vE=12.723, vN= 1.681, vU=-0.000, pitch=-0.00, roll= 0.00, heading=  58.31	DEST=princess.state&SRC=MetronSimulator_RC1
240000	timestamp=Tue Sep 20 11:01:51 EDT 2016, trueLongitude=-116.990965, trueLatitude=30.002715, trueDepth=20.000, vE=12.723, vN= 1.681, vU=-0.000, pitch=-0.00, roll= 0.00, heading=  58.31	DEST=princess.state&SRC=MetronSimulator_RC1
241000	timestamp=Tue Sep 20 11:01:52 EDT 2016, trueLongitude=-116.990899, trueLatitude=30.002722, trueDepth=20.000, vE=12.723, vN= 1.681, vU=-0.000, pitch=-0.00, roll= 0.00, heading=  58.31	DEST=princess.state&SRC=MetronSimulator_RC1
242000	timestamp=Tue Sep 20 11:01:53 EDT 2016, trueLongitude=-116.990833, trueLatitude=30.002730, trueDepth=20.000, vE=12.723, vN= 1.681, vU=-0.000, pitch=-0.00, roll= 0.00, heading=  58.31	DEST=princess.state&SRC=MetronSimulator_RC1
243000	timestamp=Tue Sep 20 11:01:54 EDT 2016, trueLongitude=-116.990767, trueLatitude=30.002737, trueDepth=20.000, vE=12.723, vN= 1.681, vU=-0.000, pitch=-0.00, roll= 0.00, heading=  58.31	DEST=princess.state&SRC=MetronSimulator_RC1
244000	timestamp=Tue Sep 20 11:01:55 EDT 2016, trueLongitude=-116.990701, trueLatitude=30.002745, trueDepth=20.000, vE=12.723, vN= 1.681, vU=-0.000, pitch=-0.00, roll= 0.00, heading=  58.31	DEST=princess.state&SRC=MetronSimulator_RC1
245000	timestamp=Tue Sep 20 11:01:56 EDT 2016, trueLongitude=-116.990635, trueLatitude=30.002752, trueDepth=20.000, vE=12.723, vN= 1.681, vU=-0.000, pitch=-0.00, roll= 0.00, heading=  58.31	DEST=princess.state&SRC=MetronSimulator_RC1
246000	timestamp=Tue Sep 20 11:01:57 EDT 2016, trueLongitude=-116.990569, trueLatitude=30.002760, trueDepth=20.000, vE=12.723, vN= 1.681, vU=-0.000, pitch=-0.00, roll= 0.00, heading=  58.31	DEST=princess.state&SRC=MetronSimulator_RC1
247000	timestamp=Tue Sep 20 11:01:58 EDT 2016, trueLongitude=-116.990502, trueLatitude=30.002767, trueDepth=20.000, vE=12.723, vN= 1.681, vU=-0.000, pitch=-0.00, roll= 0.00, heading=  58.31	DEST=princess.state&SRC=MetronSimulator_RC1
248000	timestamp=Tue Sep 20 11:01:59 EDT 2016, trueLongitude=-116.990436, trueLatitude=30.002775, trueDepth=20.000, vE=12.723, vN= 1.681, vU=-0.000, pitch=-0.00, roll= 0.00, heading=  58.31	DEST=princess.state&SRC=MetronSimulator_RC1
249000	timestamp=Tue Sep 20 11:02:00 EDT 2016, trueLongitude=-116.990370, trueLatitude=30.002783, trueDepth=20.000, vE=12.723, vN= 1.681, vU=-0.000, pitch=-0.00, roll= 0.00, heading=  58.31	DEST=princess.state&SRC=MetronSimulator_RC1
250000	timestamp=Tue Sep 20 11:02:01 EDT 2016, trueLongitude=-116.990304, trueLatitude=30.002790, trueDepth=20.000, vE=12.723, vN= 1.681, vU=-0.000, pitch=-0.00, roll= 0.00, heading=  58.31	DEST=princess.state&SRC=MetronSimulator_RC1
251000	timestamp=Tue Sep 20 11:02:02 EDT 2016, trueLongitude=-116.990238, trueLatitude=30.002798, trueDepth=20.000, vE=12.723, vN= 1.681, vU=-0.000, pitch=-0.00, roll= 0.00, heading=  58.31	DEST=princess.state&SRC=MetronSimulator_RC1
252000	timestamp=Tue Sep 20 11:02:03 EDT 2016, trueLongitude=-116.990172, trueLatitude=30.002805, trueDepth=20.000, vE=12.723, vN= 1.681, vU=-0.000, pitch=-0.00, roll= 0.00, heading=  58.31	DEST=princess.state&SRC=MetronSimulator_RC1
253000	timestamp=Tue Sep 20 11:02:04 EDT 2016, trueLongitude=-116.990106, trueLatitude=30.002813, trueDepth=20.000, vE=12.723, vN= 1.681, vU=-0.000, pitch=-0.00, roll= 0.00, heading=  58.31	DEST=princess.state&SRC=MetronSimulator_RC1
254000	timestamp=Tue Sep 20 11:02:05 EDT 2016, trueLongitude=-116.990040, trueLatitude=30.002820, trueDepth=20.000, vE=12.723, vN= 1.681, vU=-0.000, pitch=-0.00, roll= 0.00, heading=  58.31	DEST=princess.state&SRC=MetronSimulator_RC1
255000	timestamp=Tue Sep 20 11:02:06 EDT 2016, trueLongitude=-116.989974, trueLatitude=30.002828, trueDepth=20.000, vE=12.723, vN= 1.681, vU=-0.000, pitch=-0.00, roll= 0.00, heading=  58.31	DEST=princess.state&SRC=MetronSimulator_RC1
